,City,Country,Max Temp,Current Description,Lat,Lng,Hotel Name
278,Kashgar,CN,60.01,dust,39.45,75.98,深航国际酒店
279,Salamiyah,SY,60.08,clear sky,35.01,37.05,فندق السلام
280,Lagoa,PT,60.15,overcast clouds,39.05,-27.98,Casa da Madrinha
281,Ardeşen,TR,60.24,overcast clouds,41.19,40.99,No hotel found
282,Gazojak,TM,60.3,overcast clouds,41.19,61.4,Жайхун
283,Katsuura,JP,60.51,clear sky,35.13,140.3,潮騒の宿
284,Sayyan,YE,60.73,scattered clouds,15.17,44.32,No hotel found
285,Hermanus,ZA,60.8,light rain,-34.42,19.23,Hermanus Backpackers
286,Te Anau,NZ,61.0,overcast clouds,-45.42,167.72,Kingsgate Hotel
287,Teguise,ES,61.02,clear sky,29.06,-13.56,Finca Las Laderas
289,Bluff,NZ,61.68,broken clouds,-46.6,168.33,No hotel found
290,Jumla,NP,61.86,clear sky,29.27,82.18,Valley view
291,Camacha,PT,62.02,scattered clouds,33.08,-16.33,Praia Dourada
294,San Ignacio,PE,62.26,light rain,-5.15,-79.0,El Gran Hotel
295,Kaitangata,NZ,62.53,overcast clouds,-46.28,169.85,No hotel found
297,Saldanha,ZA,62.65,overcast clouds,-33.01,17.94,Hoedjesbaai
298,Buraidah,SA,62.71,clear sky,26.33,43.98,دنا للوحدات السكنية
299,Ribeira Grande,PT,62.78,light rain,38.52,-28.7,No hotel found
300,Kruisfontein,ZA,62.89,scattered clouds,-34.0,24.73,No hotel found
302,Vila Franca do Campo,PT,63.01,heavy intensity rain,37.72,-25.43,Vinha d'Areia Beach Hotel
303,Hokitika,NZ,63.05,broken clouds,-42.72,170.97,Beachfront Hotel
304,Bredasdorp,ZA,63.19,broken clouds,-34.53,20.04,Victoria Hotel
306,Benghazi,LY,63.72,clear sky,32.12,20.07,فندق
307,Navolato,MX,63.79,scattered clouds,24.77,-107.69,No hotel found
308,Luena,AO,63.81,light rain,-11.78,19.92,No hotel found
309,Nurota,UZ,63.93,overcast clouds,40.56,65.69,Nurota
310,Sakakah,SA,63.97,clear sky,29.97,40.21,فندق النزل
311,Shimoda,JP,64.11,clear sky,34.67,138.95,黒船ホテル
312,Coquimbo,CL,64.13,overcast clouds,-29.95,-71.34,Hotel Liverpool
313,Nagato,JP,64.27,clear sky,34.38,131.2,きらく
315,Tuatapere,NZ,64.38,overcast clouds,-46.13,167.68,No hotel found
316,Shingū,JP,64.47,clear sky,33.73,135.98,ホテルニューパレス
317,Riyadh,SA,64.54,broken clouds,24.69,46.72,No hotel found
318,Portland,AU,64.78,scattered clouds,-38.33,141.6,No hotel found
319,San Vicente,AR,64.78,clear sky,-26.62,-54.13,Los Lapachos
320,Kansanshi,ZM,64.8,light rain,-12.1,26.43,No hotel found
321,Dawlatabad,AF,64.89,overcast clouds,36.41,64.91,No hotel found
322,Itoigawa,JP,65.01,clear sky,37.03,137.85,たつみ旅館
323,Kapaa,US,65.12,broken clouds,22.08,-159.32,Coral Reef Resort
324,Lalibela,ET,65.14,scattered clouds,12.03,39.03,Roha Hotel
325,Shizilu,CN,65.16,overcast clouds,35.17,118.83,No hotel found
326,Kambove,CD,65.19,overcast clouds,-10.88,26.6,No hotel found
327,Tolaga Bay,NZ,65.37,few clouds,-38.37,178.3,No hotel found
328,Necochea,AR,65.7,broken clouds,-38.55,-58.74,Cabañas Río Quequén
329,Jobabo,CU,66.22,clear sky,20.97,-76.3,Casa central MININT
330,Abbeville,US,66.22,mist,29.97,-92.13,Days Inn by Wyndham Abbeville
331,Monteagudo,BO,66.58,broken clouds,-19.82,-63.98,Residencial San José
332,Lucapa,AO,66.6,overcast clouds,-8.42,20.74,No hotel found
333,Jalu,LY,66.63,scattered clouds,29.03,21.55,فندق جالو السياحي
334,Goma,CD,66.7,light rain,-1.68,29.22,Hôtel Case Depart
335,Denia,ES,66.74,few clouds,38.84,0.11,MR Hotel Costa Blanca
336,Awjilah,LY,66.83,scattered clouds,29.11,21.29,No hotel found
337,Najrān,SA,66.85,scattered clouds,17.49,44.13,No hotel found
338,Juegang,CN,66.9,overcast clouds,32.32,121.19,No hotel found
339,Sonoita,MX,66.92,broken clouds,31.85,-112.83,No hotel found
340,Houma,US,66.99,mist,29.6,-90.72,Courtyard by Marriott Houma
341,Timaru,NZ,67.06,scattered clouds,-44.4,171.25,The Grosvenor Hotel
342,Illapel,CL,67.23,clear sky,-31.63,-71.17,Hotel Diaguitas
343,Antofagasta,CL,67.28,few clouds,-23.65,-70.4,Hotel Colón
344,Serenje,ZM,67.44,light rain,-13.23,30.24,Mogan Guesthouse
345,Mirebalais,HT,67.46,clear sky,18.83,-72.11,Le Mirage
346,Sangmélima,CM,67.5,overcast clouds,2.93,11.98,Hôtel l'Afamba
347,Corinto,BR,67.57,overcast clouds,-18.38,-44.46,No hotel found
348,Suez,EG,67.78,clear sky,29.97,32.53,No hotel found
349,Minamata,JP,67.82,broken clouds,32.22,130.4,No hotel found
350,Mount Gambier,AU,67.91,clear sky,-37.83,140.77,The Old Mount Gambier Gaol
351,Yaoundé,CM,68.02,overcast clouds,3.87,11.52,Jully Hotel
353,Itapuranga,BR,68.29,overcast clouds,-15.56,-49.95,No hotel found
354,Port Elizabeth,ZA,68.31,few clouds,-33.92,25.57,Waterford Hotel
355,Bouar,CF,68.31,overcast clouds,5.93,15.6,Mission catholique
356,Vryheid,ZA,68.67,clear sky,-27.77,30.79,Oxford Lodge
357,Aparecida do Taboado,BR,68.74,overcast clouds,-20.09,-51.09,Novo Hotel
358,Moa,CU,68.86,clear sky,20.66,-74.94,Hotel Miraflores
359,Port Lincoln,AU,68.92,scattered clouds,-34.73,135.87,Boston Hotel
360,Jamestown,SH,69.06,overcast clouds,-15.94,-5.72,Consulate Hotel
361,Los Llanos de Aridane,ES,69.12,clear sky,28.66,-17.92,Valle Aridane
362,Port Alfred,ZA,69.19,broken clouds,-33.59,26.89,No hotel found
363,Santa Rosa,AR,69.37,broken clouds,-36.62,-64.28,Hospedaje La Estancia
365,Nola,CF,69.44,light rain,3.53,16.04,No hotel found
366,Grand-Santi,GF,69.46,overcast clouds,4.25,-54.38,No hotel found
367,Hilo,US,69.53,overcast clouds,19.73,-155.09,Dolphin Bay Hotel
368,Lolodorf,CM,69.55,light rain,3.23,10.73,No hotel found
369,Ponta do Sol,CV,69.58,clear sky,17.2,-25.09,Residencial Ponta do Sol
370,Quisqueya,DO,69.69,clear sky,18.56,-69.41,No hotel found
371,Pedro Juan Caballero,PY,69.76,scattered clouds,-22.55,-55.73,Acapulco
372,Esperance,AU,69.8,clear sky,-33.87,121.9,Hospitality
373,Adrar,DZ,69.84,clear sky,25.75,-1.0,No hotel found
374,Jitaúna,BR,69.84,scattered clouds,-14.02,-39.89,No hotel found
375,New Norfolk,AU,69.93,broken clouds,-42.78,147.06,Woodbridge on the Derwent
376,Punta Alta,AR,70.11,few clouds,-38.88,-62.07,Gran Hotel
377,Fortuna,BR,70.25,overcast clouds,-5.73,-44.16,No hotel found
378,Hobart,AU,70.27,clear sky,-42.88,147.33,Vibe Hotel Hobart
379,Cuamba,MZ,70.27,overcast clouds,-14.8,36.54,Sao Miguel
380,Hasaki,JP,70.29,clear sky,35.73,140.83,ビジネスホテル　いづや
381,Comodoro Rivadavia,AR,70.29,overcast clouds,-45.87,-67.5,No hotel found
383,Jardim,BR,70.45,scattered clouds,-21.48,-56.14,Hotel Uchôa
384,Burnie,AU,70.45,broken clouds,-41.07,145.92,Burnie Central TownHouse Hotel
385,Lagunas,PE,70.59,overcast clouds,-5.23,-75.68,Hospedaje Lagunas
386,Pontes e Lacerda,BR,70.65,overcast clouds,-15.23,-59.34,Hotel Avenida
387,Dakar,SN,70.68,clear sky,14.69,-17.44,翁记小吃
388,Sungai Penuh,ID,70.81,light rain,-2.08,101.38,Hotel Matahari
389,Kindu,CD,70.99,light rain,-2.95,25.95,No hotel found
390,Chui,UY,71.06,scattered clouds,-33.7,-53.46,Alerces
391,Laguna,BR,71.1,overcast clouds,-28.48,-48.78,Marina Sul Hotel
392,Matamoros,MX,71.11,scattered clouds,25.53,-103.25,No hotel found
393,Mantua,CU,71.19,scattered clouds,22.29,-84.28,"Hotel ""Mangos de Roque"""
394,Rocha,UY,71.44,overcast clouds,-34.48,-54.33,Hotel Municipal
395,Puerto Nariño,CO,71.49,heavy intensity rain,-3.77,-70.38,Eco Hotel Euare
396,Feijó,BR,71.6,overcast clouds,-8.16,-70.35,Hotel JOAFRAN
397,Biankouma,CI,71.6,overcast clouds,7.74,-7.61,No hotel found
398,Tamiami,US,71.62,clear sky,25.76,-80.4,Comfort Suites Miami Kendall
399,Albany,AU,71.62,few clouds,-35.02,117.89,Sixdegrees
400,Owando,CG,71.64,light rain,-0.48,15.9,Hotel de l'Eglise
401,Kisangani,CD,71.67,overcast clouds,0.52,25.2,Les Mambo's
402,Lodja,CD,71.67,overcast clouds,-3.48,23.43,No hotel found
403,Yamazakichō-nakabirose,JP,71.83,clear sky,35.0,134.55,No hotel found
404,Bull Savanna,JM,71.91,light rain,17.89,-77.59,Junction Guest House
405,Conceição do Araguaia,BR,71.92,overcast clouds,-8.26,-49.26,No hotel found
406,East London,ZA,72.0,clear sky,-33.02,27.91,Majestic Boutique Hotel
407,Merritt Island,US,72.03,few clouds,28.54,-80.67,No hotel found
408,Mar del Plata,AR,72.09,broken clouds,-38.0,-57.56,Nuevo Ostende
409,Mozarlândia,BR,72.12,overcast clouds,-14.74,-50.57,No hotel found
410,Saint-Georges,GF,72.18,broken clouds,3.9,-51.8,Caz-Calé
411,São Gabriel da Cachoeira,BR,72.21,light rain,-0.13,-67.09,Casa de Hóspedes do CFRN/5ºBIS
412,Marsh Harbour,BS,72.25,clear sky,26.54,-77.06,Lofty Fig Villas
413,Cockburn Town,TC,72.27,few clouds,21.46,-71.14,The Salt Raker Inn
414,Merowe,SD,72.28,overcast clouds,18.48,31.82,Merowe Land
415,Santa Rosa,BO,72.3,overcast clouds,-14.17,-66.88,No hotel found
416,Quibdó,CO,72.41,light rain,5.69,-76.66,camino real
417,Barão de Melgaço,BR,72.54,broken clouds,-16.19,-55.97,No hotel found
418,Río Tercero,AR,72.81,clear sky,-32.17,-64.11,hotel Argentino
419,Atar,MR,72.82,clear sky,20.52,-13.05,فندق سكليل
420,Kahului,US,72.84,clear sky,20.89,-156.47,Maui Seaside Hotel
421,Alvorada,BR,72.95,overcast clouds,-12.48,-49.12,No hotel found
422,Jacareacanga,BR,72.95,overcast clouds,-6.22,-57.75,Hotel São Cristovão
423,Paita,PE,72.97,light rain,-5.09,-81.11,Victor's
424,Alenquer,BR,73.0,overcast clouds,-1.94,-54.74,No hotel found
425,Iguape,BR,73.0,light rain,-24.71,-47.56,Pousada dos Lampiões
426,Rio Grande,BR,73.02,clear sky,-32.03,-52.1,Hotel Swan Expres
427,Carauari,BR,73.06,overcast clouds,-4.88,-66.9,No hotel found
428,Nova Olímpia,BR,73.08,overcast clouds,-14.8,-57.29,Olímpia Hotel
429,‘Āhuimanu,US,73.11,broken clouds,21.44,-157.84,No hotel found
430,Sechura,PE,73.13,light rain,-5.56,-80.82,Hospedaje Costa Bella
431,Santa Isabel Rio Negro,BR,73.15,moderate rain,-0.41,-65.02,Hotel Maikon
432,Upata,VE,73.18,overcast clouds,8.01,-62.4,Hotel Garibardi
433,Itaituba,BR,73.24,overcast clouds,-4.28,-55.98,TG Hotel
434,Brandon,US,73.26,clear sky,27.94,-82.29,Brandon Motor Lodge
435,Tefé,BR,73.31,moderate rain,-3.35,-64.71,Pousada Santa Teresa
436,Coari,BR,73.36,overcast clouds,-4.08,-63.14,Hotel Urucu Plaza
437,Araouane,ML,73.38,clear sky,18.9,-3.53,No hotel found
438,Panguna,PG,73.44,light rain,-6.32,155.48,No hotel found
439,Bahía Honda,CU,73.45,overcast clouds,22.9,-83.16,No hotel found
440,Arica,CL,73.63,clear sky,-18.48,-70.3,Las Acacias
441,San Luis,AR,73.65,clear sky,-33.3,-66.34,Belgrano
442,São Sebastião,BR,73.69,overcast clouds,-23.76,-45.41,Hotel Arrastão
443,Makakilo City,US,73.72,clear sky,21.35,-158.09,Embassy Suites by Hilton Oahu Kapolei
444,Potiskum,NG,73.81,scattered clouds,11.71,11.07,TAMIR HOTEL LIMITED
445,Vila Velha,BR,73.94,few clouds,-20.33,-40.29,Hotel Prainha
446,Tanout,NE,74.1,broken clouds,14.97,8.89,No hotel found
447,San Jeronimo,MX,74.14,broken clouds,29.37,-110.79,No hotel found
448,Gamboma,CG,74.17,overcast clouds,-1.88,15.86,No hotel found
449,Mossamedes,AO,74.21,overcast clouds,-15.2,12.15,Hotel Chik Chik Namibe
450,Caravelas,BR,74.23,clear sky,-17.71,-39.25,Pousada dos Navegantes
451,San Ramón,BO,74.23,overcast clouds,-13.28,-64.72,No hotel found
452,Mathathane,BW,74.23,few clouds,-22.27,28.75,No hotel found
453,Cabo San Lucas,MX,74.52,broken clouds,22.89,-109.91,Hotel Estancia Real
454,Caxito,AO,74.52,overcast clouds,-8.58,13.66,No hotel found
455,Barra Patuca,HN,74.57,clear sky,15.8,-84.28,No hotel found
456,Dustlik,UZ,74.57,overcast clouds,40.52,68.04,No hotel found
457,Seoul,KR,74.59,clear sky,37.57,126.98,신라스테이 광화문
458,Diffa,NE,74.64,broken clouds,13.32,12.61,UNHCR guest house
459,São Filipe,CV,74.64,clear sky,14.9,-24.5,Hotel Xaguate
460,Prado,BR,74.73,clear sky,-17.34,-39.22,Pousada Recanto do Prado
461,Puerto Quijarro,BO,74.73,scattered clouds,-17.78,-57.77,No hotel found
462,Trinidad,UY,74.77,broken clouds,-33.54,-56.89,Maxim
463,Arraial do Cabo,BR,74.79,light rain,-22.97,-42.03,Hotel Pousada Varandas ao Mar
464,Huarmey,PE,75.13,overcast clouds,-10.07,-78.15,Hospedaje Juanita
465,Cidreira,BR,75.15,clear sky,-30.18,-50.21,Hotel Castelo
466,San Miguel de Tucumán,AR,75.2,few clouds,-26.82,-65.22,América
467,Cayenne,GF,75.24,broken clouds,4.93,-52.33,Central Hôtel
468,Pisco,PE,75.25,mist,-13.7,-76.22,No hotel found
469,Avarua,CK,75.25,moderate rain,-21.21,-159.78,Paradise Inn
470,Tete,MZ,75.29,broken clouds,-16.16,33.59,Hotel Anif
471,Ishigaki,JP,75.33,scattered clouds,24.34,124.16,GranView ISHIGAKI
472,Beitbridge,ZW,75.49,scattered clouds,-22.22,30.0,Beitbridge Inn & Casino
473,Auchi,NG,75.51,overcast clouds,7.07,6.27,No hotel found
474,Filadelfia,PY,75.51,clear sky,-22.35,-60.03,Hotel Florida
475,Bartica,GY,75.52,overcast clouds,6.4,-58.62,Rockville Hotel
476,São João da Barra,BR,75.54,overcast clouds,-21.64,-41.05,Pousada Mediterrâneo
477,Puerto Ayora,EC,75.54,overcast clouds,-0.74,-90.35,Hostal La Mirada De Solitario George
478,Itoman,JP,75.58,scattered clouds,26.12,127.67,No hotel found
480,Zaraza,VE,75.7,overcast clouds,9.35,-65.32,No hotel found
481,Mattru,SL,75.85,overcast clouds,7.62,-11.83,No hotel found
482,Guarujá,BR,75.88,overcast clouds,-23.99,-46.26,Pousada
483,Cocobeach,GA,76.03,light rain,1.0,9.58,Motel Iboga
484,Caucasia,CO,76.03,overcast clouds,7.99,-75.19,Hotel Caucasia
485,Nushki,PK,76.05,overcast clouds,29.55,66.02,No hotel found
486,Necoclí,CO,76.08,overcast clouds,8.42,-76.79,Hotel San Sebastián de Urabá
487,Pacora,PA,76.17,clear sky,9.08,-79.28,No hotel found
488,Itarema,BR,76.37,scattered clouds,-2.92,-39.92,Hotel Itarema
489,Bubaque,GW,76.51,few clouds,11.28,-15.83,Chez Julio
490,Sinnamary,GF,76.55,overcast clouds,5.38,-52.95,Hôtel du fleuve
491,Gamba,GA,76.55,overcast clouds,-2.65,10.0,No hotel found
492,Thai Binh,VN,76.68,overcast clouds,20.45,106.33,KHACH SAN HOÀNG GIA(correct location)
493,Acapulco de Juárez,MX,76.82,few clouds,16.86,-99.89,kristal Beach
494,Bachaquero,VE,76.89,overcast clouds,9.97,-71.15,No hotel found
495,Puerto Baquerizo Moreno,EC,76.95,overcast clouds,-0.9,-89.6,Dory's House
496,Saryagash,KZ,76.96,overcast clouds,41.45,69.17,гостинца
497,Tahoua,NE,76.98,clear sky,14.89,5.27,Hotel Bungalow
498,Guasdualito,VE,77.0,overcast clouds,7.24,-70.73,No hotel found
499,Gulu,UG,77.05,overcast clouds,2.77,32.3,Idungo Inonga Guest House
500,Progreso,MX,77.11,clear sky,21.28,-89.67,Centro Vacacional Obrero CTM
501,Vao,NC,77.14,scattered clouds,-22.67,167.48,Nataiwatch
502,Taoudenni,ML,77.2,clear sky,22.68,-3.98,No hotel found
503,Conakry,GN,77.23,broken clouds,9.54,-13.68,Hotel Millenium Suites
504,Ngama,TD,77.36,overcast clouds,11.78,17.17,No hotel found
505,Bassar,TG,77.36,overcast clouds,9.25,0.78,Hôtel Bassar
506,Mananjary,MG,77.38,light rain,-21.22,48.33,Ideal Hotel Annexe
507,Bonthe,SL,77.4,overcast clouds,7.53,-12.51,No hotel found
508,Tutóia,BR,77.43,broken clouds,-2.76,-42.27,Pousada San Vicente
509,Tessalit,ML,77.45,broken clouds,20.2,1.01,No hotel found
510,Praia,CV,77.54,clear sky,14.92,-23.51,Boutique Hotel Praia Maria
511,Tabou,CI,77.61,overcast clouds,4.42,-7.35,hôtel le rochet
512,Young,UY,77.61,clear sky,-32.68,-57.63,Hotel El Galeon
513,Vila do Maio,CV,77.79,clear sky,15.13,-23.22,Residencial Jardins De Maio
514,Ndélé,CF,77.83,overcast clouds,8.41,20.65,No hotel found
515,Ikom,NG,77.83,light rain,5.97,8.71,Gold Palm Hotels
516,Huai'an,CN,77.86,light rain,33.59,119.02,No hotel found
517,Port Macquarie,AU,77.9,scattered clouds,-31.43,152.92,The Observatory
518,San Cristobal,EC,77.9,overcast clouds,-0.9,-89.62,San Francisco
519,Harper,LR,78.21,overcast clouds,4.38,-7.72,No hotel found
520,Georgetown,SH,78.28,overcast clouds,-7.93,-14.42,Obsidian Hotel
521,Margate,ZA,78.39,clear sky,-30.86,30.37,Margate
522,Mongo,TD,78.39,broken clouds,12.18,18.69,No hotel found
523,Ampanihy,MG,78.39,clear sky,-24.7,44.75,Hotel restaurant Angora
524,Touros,BR,78.51,few clouds,-5.2,-35.46,Pousada Atlântico
525,Salalah,OM,78.62,overcast clouds,17.02,54.09,Al Tawazan Modern Lodge
526,Vaini,TO,78.96,scattered clouds,-21.2,-175.2,Keleti International Resort
527,Ballina,AU,79.02,broken clouds,-28.87,153.57,Ballina Beach Resort
528,Soyo,AO,79.03,light rain,-6.13,12.37,No hotel found
529,Takoradze,GH,79.07,overcast clouds,4.88,-1.76,Valley Beach
530,Nacala,MZ,79.07,overcast clouds,-14.54,40.67,Indico Apart Hotel 2
531,Rikitea,PF,79.12,light rain,-23.12,-134.97,Chez Bianca & Benoit
532,Busselton,AU,79.14,few clouds,-33.65,115.33,Broadwater Beach Resort
533,Beloha,MG,79.21,clear sky,-25.17,45.05,Hôtel Oliv
534,Pokhara,NP,79.25,few clouds,28.23,83.98,Kaushal Hotel
535,Pitimbu,BR,79.39,broken clouds,-7.47,-34.81,Pousada Brisa Mar
536,Bathsheba,BB,79.41,broken clouds,13.22,-59.52,Round House Inn
537,Honiara,SB,79.45,overcast clouds,-9.43,159.95,Coral Sea Resort & Casino
538,Cabedelo,BR,79.47,scattered clouds,-6.98,-34.83,No hotel found
539,Wé,NC,79.66,clear sky,-20.92,167.26,Drehu Village
540,Alofi,NU,79.68,light rain,-19.06,-169.92,No hotel found
541,Alugan,PH,79.7,broken clouds,12.22,125.48,No hotel found
542,Byron Bay,AU,79.72,broken clouds,-28.65,153.62,Lord Byron Resort
543,Inhambane,MZ,79.77,light rain,-23.86,35.38,Grão Capitão
544,Atuona,PF,79.83,broken clouds,-9.8,-139.03,Pearl Resort
545,Koumac,NC,79.93,broken clouds,-20.57,164.28,Le Grand cerf
546,Ibrā’,OM,80.1,broken clouds,22.69,58.53,الدكيك
547,Port Augusta,AU,80.33,clear sky,-32.5,137.77,Hotel Commonwealth
548,Mount Isa,AU,80.37,light rain,-20.73,139.5,Ibis Styles
549,Bengkulu,ID,80.44,overcast clouds,-3.8,102.27,No hotel found
550,Meulaboh,ID,80.47,overcast clouds,4.14,96.13,Hotel Meuligou
551,Boa Vista,BR,80.58,clear sky,2.82,-60.67,Aipana Plaza Hotel
552,Tiarei,PF,80.62,light rain,-17.53,-149.33,No hotel found
553,Kaberamaido,UG,80.64,broken clouds,1.74,33.16,No hotel found
554,Padang,ID,80.65,moderate rain,-0.95,100.35,losmen Surya
555,Pemangkat,ID,80.71,overcast clouds,1.17,108.97,Hotel Kelapa Gading
556,Poum,NC,80.74,scattered clouds,-20.23,164.02,No hotel found
557,Boussé,BF,80.74,overcast clouds,12.66,-1.89,No hotel found
558,Gigmoto,PH,80.85,scattered clouds,13.78,124.39,No hotel found
559,Luganville,VU,80.96,scattered clouds,-15.53,167.17,Beachfront Resort
560,Atambua,ID,81.25,scattered clouds,-9.11,124.89,Hotel Kingstar
561,Wukari,NG,81.27,overcast clouds,7.85,9.78,No hotel found
562,Thinadhoo,MV,81.5,broken clouds,0.53,72.93,No hotel found
563,Lufilufi,WS,81.52,light rain,-13.87,-171.6,No hotel found
564,Tulagi,SB,81.73,overcast clouds,-9.1,160.15,No hotel found
565,Biak,ID,81.79,broken clouds,-0.91,122.88,No hotel found
566,Manuk Mangkaw,PH,81.81,broken clouds,4.8,119.85,No hotel found
567,Carnarvon,AU,81.81,clear sky,-24.87,113.63,No hotel found
568,Victoria,SC,81.82,light rain,-4.62,55.45,Hilltop Boutique Hotel
569,Kieta,PG,81.84,moderate rain,-6.22,155.63,No hotel found
570,Kidal,ML,81.9,few clouds,18.44,1.41,No hotel found
571,Mersing,MY,81.93,overcast clouds,2.43,103.84,Mersing Inn Hotel
572,Bandarbeyla,SO,81.97,clear sky,9.49,50.81,No hotel found
573,Hithadhoo,MV,81.99,broken clouds,-0.6,73.08,Pebbles Inn
574,Hithadhoo,MV,81.99,broken clouds,-0.6,73.08,Pebbles Inn
575,Lakki,PK,82.06,clear sky,32.61,70.91,No hotel found
576,Kavaratti,IN,82.09,clear sky,10.57,72.64,No hotel found
577,Sokoni,TZ,82.11,overcast clouds,-6.43,39.55,La Madrugada Beach Hotel
578,Butaritari,KI,82.11,scattered clouds,3.07,172.79,No hotel found
579,Aitape,PG,82.24,light rain,-3.14,142.35,No hotel found
580,Bafoulabé,ML,82.26,overcast clouds,13.81,-10.83,No hotel found
581,Gao,ML,82.31,broken clouds,16.64,1.64,No hotel found
582,Sambava,MG,82.36,overcast clouds,-14.27,50.17,Pacifique
583,Ambilobe,MG,82.4,light rain,-13.2,49.05,Hôtel National
584,Gaoua,BF,82.58,overcast clouds,10.3,-3.25,No hotel found
585,Manokwari,ID,82.58,scattered clouds,-0.87,134.08,Hotel Arfak
586,Nabire,ID,82.71,overcast clouds,-3.37,135.48,Hotel Anggrek
587,Souillac,MU,82.78,light rain,-20.52,57.52,Hotel SkylineInn
588,Sur,OM,82.8,overcast clouds,22.57,59.53,Sur Hotel
589,Tual,ID,82.85,overcast clouds,-5.67,132.75,Suita
590,Fare,PF,82.99,overcast clouds,-16.7,-151.02,hôtel Maitai Lapita Village
591,Faanui,PF,83.03,broken clouds,-16.48,-151.75,Oa Oa Lodge
592,Kavieng,PG,83.28,light rain,-2.57,150.8,Kavieng Niu Lodge
593,Majene,ID,83.28,broken clouds,-3.54,118.97,No hotel found
594,Vanimo,PG,83.34,light rain,-2.67,141.3,CBC Guesthouse
595,Saint-Joseph,RE,83.46,light rain,-21.37,55.62,No hotel found
596,Namatanai,PG,83.53,light rain,-3.67,152.43,Namatanai Hotel
597,Bosaso,SO,83.59,clear sky,11.28,49.18,SBC
598,Ternate,ID,83.64,overcast clouds,0.8,127.4,Boulivard ternate
599,Sibolga,ID,83.7,moderate rain,1.74,98.78,Hotel Prima Indah
600,Saint-Philippe,RE,83.79,light rain,-21.36,55.77,Le Baril
601,Bandipur,IN,83.86,clear sky,11.67,76.63,Nilgiri Resort
602,Khowai,IN,83.98,broken clouds,24.1,91.63,No hotel found
603,Mogadishu,SO,84.07,scattered clouds,2.04,45.34,Villa Rays Restaurant & Hotel
604,Bac Lieu,VN,84.09,broken clouds,9.29,105.72,Nhà khách UBND tỉnh Bạc Liêu
605,San Nicolas,PH,84.11,few clouds,18.17,120.6,Pamulinawen Hotel
606,Cukai,MY,84.15,overcast clouds,4.25,103.42,Hotel Shafura 2
607,Amahai,ID,84.2,light rain,-3.33,128.92,Onemay Hotel
608,Bambous Virieux,MU,84.22,light rain,-20.34,57.76,No hotel found
609,Kampot,KH,84.25,broken clouds,10.62,104.18,Sambor Sambat Guesthouse
610,Mahébourg,MU,84.25,light rain,-20.41,57.7,Grand Bel Air
611,Quatre Cocos,MU,84.31,light rain,-20.21,57.76,Horisun
612,Grand Gaube,MU,84.38,scattered clouds,-20.01,57.66,Hotel Lux- Grand Gaube
613,Merauke,ID,84.4,few clouds,-8.47,140.33,No hotel found
614,Cap Malheureux,MU,84.47,clear sky,-19.98,57.61,Hotel Coin de Mire Attitude
615,Samarai,PG,84.54,broken clouds,-10.62,150.67,No hotel found
616,Geraldton,AU,84.61,clear sky,-28.77,114.6,Ocean Centre Hotel
617,Galle,LK,84.61,overcast clouds,6.04,80.22,Lady Hill
618,Kollo,NE,84.63,overcast clouds,13.3,2.34,No hotel found
619,Kloulklubed,PW,84.7,overcast clouds,7.04,134.26,The Adventures Inn
620,Nhulunbuy,AU,84.81,overcast clouds,-12.23,136.77,No hotel found
621,Alyangula,AU,84.97,clear sky,-13.85,136.42,No hotel found
622,Madang,PG,85.05,broken clouds,-5.22,145.8,Madang Star International
623,Jizan,SA,85.14,scattered clouds,17.33,42.67,No hotel found
624,Amla,IN,85.17,clear sky,21.93,78.12,No hotel found
625,Balikpapan,ID,85.19,few clouds,-1.27,116.83,Hotel Grand Tiga Mustika
626,Karangampel,ID,85.21,scattered clouds,-6.46,108.45,No hotel found
627,Maningrida,AU,85.37,few clouds,-12.07,134.27,No hotel found
628,Northam,AU,85.51,few clouds,-31.67,116.67,Farmers' Home Hotel
629,Ingham,AU,85.87,few clouds,-18.65,146.17,Station Hotel
630,Saint-Pierre,RE,85.91,clear sky,-21.34,55.48,Tropic Hotel
631,Pontianak,ID,85.98,scattered clouds,-0.03,109.33,Golden Tulip Hotel
632,Port Blair,IN,86.04,haze,11.67,92.75,Lighthouse Residency
633,Waingapu,ID,86.05,clear sky,-9.66,120.26,Hotel Jemmy
634,Isangel,VU,86.11,scattered clouds,-19.55,169.27,Tanna Lodge
635,Saint-Denis,RE,86.11,few clouds,-20.87,55.47,Hôtel du Centre
636,Ambon City,ID,86.14,scattered clouds,-3.7,128.18,Penginapan Asri
637,Flinders,AU,86.18,light rain,-34.58,150.86,No hotel found
638,Manat,PH,86.23,scattered clouds,7.53,126.02,No hotel found
639,Le Port,RE,86.25,clear sky,-20.94,55.29,No hotel found
640,Vite,IN,86.47,clear sky,17.28,74.55,No hotel found
641,Mandera,KE,86.88,broken clouds,3.94,41.87,Kornesh Hotel and Lodging
642,Townsville,AU,86.88,scattered clouds,-19.25,146.8,Aquarius on the Beach
643,Narwar,IN,86.95,clear sky,25.65,77.9,No hotel found
644,Mildura,AU,87.08,clear sky,-34.2,142.15,Chaffey Motor Inn
645,Port Moresby,PG,87.22,haze,-9.44,147.18,No hotel found
646,Roma,AU,87.24,broken clouds,-26.58,148.78,Commercial Hotel
647,Dzaoudzi,YT,87.69,clear sky,-12.79,45.27,2.0 hôtel
648,Sittwe,MM,87.76,overcast clouds,20.15,92.9,Yuzana Aung Motel 1
649,Chaiya,TH,87.78,scattered clouds,9.39,99.2,Udomlarp Hotel
650,Banjar,ID,88.99,clear sky,-8.19,114.97,Villa Banjar Beach
651,Bikaner,IN,89.44,few clouds,28.02,73.3,Hotel Taj Restaurant
652,Matara,LK,89.55,overcast clouds,5.95,80.54,Villa Palm Breeze
653,Mackay,AU,89.69,clear sky,-21.15,149.2,Mackay Oceanside Central Apartment Hotel
654,Mae Hong Son,TH,89.74,haze,19.3,97.97,Jongkham Place
655,Bhattiprolu,IN,89.76,clear sky,16.1,80.78,No hotel found
656,Kadhan,PK,89.78,scattered clouds,24.48,68.99,No hotel found
657,Hambantota,LK,89.94,few clouds,6.12,81.12,Oasis Aurweda Resort Hambathota
658,Mareeba,AU,90.45,clear sky,-17.0,145.43,The Gateway Hotel
659,San Isidro,PH,91.11,clear sky,15.02,120.82,No hotel found
660,Saiha,IN,91.24,overcast clouds,22.48,92.97,No hotel found
661,Nandyāl,IN,91.58,clear sky,15.48,78.48,No hotel found
662,Tando Muhammad Khan,PK,91.58,broken clouds,25.12,68.54,No hotel found
663,Phirangipuram,IN,93.65,clear sky,16.3,80.27,No hotel found
664,Broome,AU,94.95,clear sky,-17.97,122.23,Broome Oaks Hotel
665,Kununurra,AU,94.98,few clouds,-15.77,128.73,Kununurra Country Club Resort
